{
  "126508": {
    "placeId": "126508",
    "name": "경복궁",
    "shortName": "경복궁",
    "region": "서울 종로구",
    "emoji": "🏯",
    "thumbnail": "/characters/gyeongbokgung.png",
    "mbti": "INFJ",
    "age": "630살",
    "tagline": "조선의 첫 정궁. 새벽에 만나면 진짜 모습을 보여주는 차분한 어른.",
    "latitude": 37.579617,
    "longitude": 126.977041,
    "friends": [
      { "placeId": "127451", "relation": "가장 친한 친구" },
      { "placeId": "127454", "relation": "가까운 이웃" },
      { "placeId": "264338", "relation": "선의의 라이벌" }
    ]
  },
  "127454": {
    "placeId": "127454",
    "name": "운현궁",
    "shortName": "운현궁",
    "region": "서울 종로구",
    "emoji": "🏠",
    "thumbnail": "/characters/unhyeongung.png",
    "mbti": "INFP",
    "age": "160살",
    "tagline": "경복궁 옆에서 조용히 살아가는 내성적인 작은 궁.",
    "latitude": 37.576438,
    "longitude": 126.987759,
    "friends": [
      { "placeId": "126508", "relation": "친한 형" },
      { "placeId": "264352", "relation": "속마음 친구" }
    ]
  },
  "126509": {
  "placeId": "126509",
  "name": "덕수궁",
  "shortName": "덕수궁",
  "region": "서울 중구",
  "emoji": "🍂",
  "thumbnail": "/characters/deoksugung.png",
  "mbti": "ISFP",
  "age": "433살",
  "tagline": "대한제국의 마지막 정궁. 동서양이 만나고, 슬픔이 머무는 곳.",
  "latitude": 37.565794,
  "longitude": 126.975143,
  "friends": [
    { "placeId": "126508", "relation": "선의의 라이벌" },
    { "placeId": "127454", "relation": "추억을 함께 나누는 사이" }
  ]
  },
  "129176": {
  "placeId": "129176",
  "name": "묵호등대",
  "shortName": "묵호등대",
  "region": "강원 동해시",
  "emoji": "🏮",
  "thumbnail": "/characters/mukho.png",
  "mbti": "ISTP",
  "age": "63살",
  "tagline": "묵호항을 60년째 지켜온 등대. 짠내 나는 바닷가 어르신.",
  "latitude": 37.547076,
  "longitude": 129.116631,
  "friends": [
    { "placeId": "2557057", "relation": "가까운 동해 바다 친구" },
    { "placeId": "1888644", "relation": "멀리 사는 같은 바다 친구" }
  ]
  },
  "125702": {
  "placeId": "125702",
  "name": "양양 낙산해수욕장",
  "shortName": "낙산해수욕장",
  "region": "강원 양양군",
  "emoji": "🏄",
  "thumbnail": "/characters/naksan.png",
  "mbti": "ESFP",
  "age": "50살",
  "tagline": "한국 서핑 성지. MZ가 사랑하는 동해 바다의 핫플.",
  "latitude": 38.116200,
  "longitude": 128.635200,
  "friends": [
    { "placeId": "129176", "relation": "옆 동네 바다 어르신" },
    { "placeId": "2557057", "relation": "같은 동해 친구" }
  ]
},
"1622663": {
  "placeId": "1622663",
  "name": "합천 황매산 군립공원",
  "shortName": "황매산",
  "region": "경남 합천군",
  "emoji": "🌺",
  "thumbnail": "/characters/hwangmaesan.png",
  "mbti": "ENFP",
  "age": "나이 불명",
  "tagline": "봄엔 철쭉, 가을엔 억새. 계절마다 완전 다른 사람인데, 왜 아무도 모르죠?",
  "latitude": 35.464500,
  "longitude": 127.975600,
  "friends": [
    { "placeId": "1888644", "relation": "숨은 명소 동지" }
  ]
},
"779594": {
  "placeId": "779594",
  "name": "한반도지형",
  "shortName": "한반도지형",
  "region": "강원 영월군",
  "emoji": "🗺️",
  "thumbnail": "/characters/hanbando.png",
  "mbti": "ISFJ",
  "age": "나이 불명",
  "tagline": "강물이 한반도 모양으로 흘러요. 저도 몰랐어요, 위에서 보기 전까진.",
  "latitude": 37.208300,
  "longitude": 128.688900,
  "friends": [
    { "placeId": "129176", "relation": "같은 강원 친구" }
  ]
},
"126729": {
  "placeId": "126729",
  "name": "삼척 환선굴",
  "shortName": "환선굴",
  "region": "강원 삼척시",
  "emoji": "🕳️",
  "thumbnail": "/characters/hwanseongul.png",
  "mbti": "INTP",
  "age": "5억살",
  "tagline": "5억 년 됐어요. 경복궁 630년? 저한테는 엊그제네요.",
  "latitude": 37.225000,
  "longitude": 129.088200,
  "friends": [
    { "placeId": "129176", "relation": "같은 강원 동해 친구" },
    { "placeId": "779594", "relation": "나이 불명 동지" }
  ]
},
"126435": {
  "placeId": "126435",
  "name": "성산일출봉",
  "shortName": "성산일출봉",
  "region": "제주 서귀포시",
  "emoji": "🌋",
  "thumbnail": "/characters/seongsan.png",
  "mbti": "ENFJ",
  "age": "5000살",
  "tagline": "제주 왔으면 저는 필수예요. 일출 보면 왜 제주에 왔는지 알게 돼요.",
  "latitude": 33.461111,
  "longitude": 126.940556,
  "friends": [
    { "placeId": "1888644", "relation": "같은 섬 감성 친구" },
    { "placeId": "129176", "relation": "일출 라이벌" }
  ]
},
"129437": {
  "placeId": "129437",
  "name": "수원 화성",
  "shortName": "수원화성",
  "region": "경기 수원시",
  "emoji": "🏰",
  "thumbnail": "/characters/hwaseong.png",
  "mbti": "ENTJ",
  "age": "230살",
  "tagline": "정조대왕이 꿈꾸던 새 도시의 성곽. 230년 됐는데 아직도 멀쩡해요.",
  "latitude": 37.288000,
  "longitude": 127.015600,
  "friends": [
    { "placeId": "126508", "relation": "조선 선배" },
    { "placeId": "126509", "relation": "같은 시대 동료" }
  ]
},
"126166": {
  "placeId": "126166",
  "name": "경주 불국사",
  "shortName": "불국사",
  "region": "경북 경주시",
  "emoji": "🛕",
  "thumbnail": "/characters/bulguksa.png",
  "mbti": "INFJ",
  "age": "1300살",
  "tagline": "신라 천년의 꿈을 담은 절. 경복궁이 조선이라면 저는 신라예요.",
  "latitude": 35.790361,
  "longitude": 129.332111,
  "friends": [
    { "placeId": "126508", "relation": "역사를 나누는 친구" },
    { "placeId": "129437", "relation": "유네스코 동기" }
  ]
},
"128834": {
  "placeId": "128834",
  "name": "담양 죽녹원",
  "shortName": "죽녹원",
  "region": "전남 담양군",
  "emoji": "🎋",
  "thumbnail": "/characters/juknokwon.png",
  "mbti": "INFP",
  "age": "23살",
  "tagline": "대나무 숲 사이로 바람 불면 서울 생각이 싹 사라져요. 진짜로요.",
  "latitude": 35.321200,
  "longitude": 126.988300,
  "friends": [
    { "placeId": "1888644", "relation": "느린 감성 친구" },
    { "placeId": "1622663", "relation": "숨은 전라도·경상도 친구" }
  ]
},
"126081": {
  "placeId": "126081",
  "name": "해운대 해수욕장",
  "shortName": "해운대",
  "region": "부산 해운대구",
  "emoji": "🏖️",
  "thumbnail": "/characters/haeundae.png",
  "mbti": "ESTP",
  "age": "나이 불명",
  "tagline": "한국 해수욕장 하면 저잖아요. 양양? 걔도 좋아요. 근데 스케일이 달라요.",
  "latitude": 35.158698,
  "longitude": 129.160384,
  "friends": [
    { "placeId": "125702", "relation": "서핑 라이벌" },
    { "placeId": "129176", "relation": "동해 바다 선배" }
  ]
},
"126019": {
  "placeId": "126019",
  "name": "팔공산",
  "shortName": "팔공산",
  "region": "대구 동구",
  "emoji": "🙏",
  "thumbnail": "/characters/palgongsan.png",
  "mbti": "ISFJ",
  "age": "나이 불명",
  "tagline": "갓바위에 소원 빌면 하나는 들어준다고 해요. 매년 수십만 명이 오거든요.",
  "latitude": 35.987500,
  "longitude": 128.695300,
  "friends": [
    { "placeId": "126166", "relation": "불교 친구" },
    { "placeId": "1622663", "relation": "같은 경상도 산 친구" }
  ]
}
}